[{"created_time": "2012-01-15T04:32:27+0000", "place": {"location": {"latitude": 34.145980224814, "city": "Pasadena", "state": "CA", "longitude": -118.1061015404, "country": "United States"}, "id": "195115800522511", "name": "Old Town Pasadena"}, "from": {"name": "Rob Witoff", "id": "10222444"}, "id": "10100608606584423", "application": {"id": "6628568379", "namespace": "fbtouch", "name": "Facebook for iPhone", "canvas_name": "fbtouch"}}, {"from": {"name": "Rob Witoff", "id": "10222444"}, "application": {"id": "6628568379", "namespace": "fbtouch", "name": "Facebook for iPhone", "canvas_name": "fbtouch"}, "place": {"location": {"city": "Buffalo", "zip": "14225", "country": "United States", "longitude": -78.731368093055, "state": "NY", "latitude": 42.934776329863}, "id": "105567146166094", "name": "Buffalo Niagara International Airport"}, "likes": {"paging": {"next": "https://graph.facebook.com/957687724063/likes?access_token=AAACEdEose0cBANEWIpdcvQOxjoZArZC4y6n5lzNr1qmR2k86fLTuiMijkh4WJ6snXilTuYj706GHNvL3xmxqjfC2162uIZD&&limit=25&offset=25&__after_id=47002205"}, "data": [{"id": "100000205067296", "name": "Ian Conor Brost"}, {"id": "47002205", "name": "Vanessa Schultz"}]}, "created_time": "2010-12-25T04:11:33+0000", "id": "957687724063"}, {"from": {"name": "Rob Witoff", "id": "10222444"}, "comments": {"paging": {"next": "https://graph.facebook.com/957646561553/comments?access_token=AAACEdEose0cBANEWIpdcvQOxjoZArZC4y6n5lzNr1qmR2k86fLTuiMijkh4WJ6snXilTuYj706GHNvL3xmxqjfC2162uIZD&&limit=25&offset=25&__after_id=957646561553_2421567"}, "data": [{"created_time": "2010-12-25T02:19:56+0000", "message": "I'm always there! I'll be there on Monday!", "can_remove": true, "from": {"name": "Kristin LaBeau", "id": "421584"}, "id": "957646561553_2421567"}]}, "application": {"id": "6628568379", "namespace": "fbtouch", "name": "Facebook for iPhone", "canvas_name": "fbtouch"}, "place": {"location": {"city": "Herndon", "zip": "20166", "country": "United States", "longitude": -77.447513765041, "state": "VA", "latitude": 38.949280010083}, "id": "148318668528654", "name": "Washington Dulles International Airport (IAD)"}, "created_time": "2010-12-25T02:14:08+0000", "id": "957646561553"}, {"created_time": "2010-12-24T17:38:20+0000", "place": {"location": {"city": "San Francisco", "zip": "94128", "country": "United States", "longitude": -122.38735331363, "state": "CA", "street": "McDonnell Rd & Link Rd.", "latitude": 37.616745661928}, "id": "110504348969090", "name": "San Francisco International Airport (SFO)"}, "from": {"name": "Rob Witoff", "id": "10222444"}, "id": "957442500493", "application": {"id": "6628568379", "namespace": "fbtouch", "name": "Facebook for iPhone", "canvas_name": "fbtouch"}}, {"from": {"name": "Rob Witoff", "id": "10222444"}, "application": {"id": "6628568379", "namespace": "fbtouch", "name": "Facebook for iPhone", "canvas_name": "fbtouch"}, "place": {"location": {"city": "Burbank", "zip": "91505-5038", "country": "United States", "longitude": -118.35253561193, "state": "CA", "street": "2627 N Hollywood Way Unit 3", "latitude": 34.196286251381}, "id": "147312201964110", "name": "Burbank Airport (BUR)"}, "likes": {"paging": {"next": "https://graph.facebook.com/957405359923/likes?access_token=AAACEdEose0cBANEWIpdcvQOxjoZArZC4y6n5lzNr1qmR2k86fLTuiMijkh4WJ6snXilTuYj706GHNvL3xmxqjfC2162uIZD&&limit=25&offset=25&__after_id=607120053"}, "data": [{"id": "607120053", "name": "Lucia Perezcano Handal"}]}, "created_time": "2010-12-24T16:15:42+0000", "id": "957405359923"}, {"from": {"name": "Rob Witoff", "id": "10222444"}, "tags": {"data": [{"name": "Matt Lenda", "id": "10221434"}, {"name": "Byron Young", "id": "10231241"}]}, "comments": {"paging": {"next": "https://graph.facebook.com/944097893193/comments?access_token=AAACEdEose0cBANEWIpdcvQOxjoZArZC4y6n5lzNr1qmR2k86fLTuiMijkh4WJ6snXilTuYj706GHNvL3xmxqjfC2162uIZD&&limit=25&offset=25&__after_id=944097893193_2301632"}, "data": [{"created_time": "2010-11-26T23:03:30+0000", "message": "Effing jealous", "can_remove": true, "from": {"name": "Erik Skurka", "id": "10200438"}, "id": "944097893193_2298196"}, {"created_time": "2010-11-28T01:42:40+0000", "message": "That place is pretty good", "can_remove": true, "from": {"name": "Lucia Perezcano Handal", "id": "607120053"}, "id": "944097893193_2301632"}]}, "application": {"id": "6628568379", "namespace": "fbtouch", "name": "Facebook for iPhone", "canvas_name": "fbtouch"}, "place": {"location": {"city": "Boulder", "country": "United States", "longitude": -105.28035900488, "state": "CO", "street": "1123 Walnut Street", "latitude": 40.016897125276}, "id": "87733511508", "name": "Walnut Brewery"}, "likes": {"paging": {"next": "https://graph.facebook.com/944097893193/likes?access_token=AAACEdEose0cBANEWIpdcvQOxjoZArZC4y6n5lzNr1qmR2k86fLTuiMijkh4WJ6snXilTuYj706GHNvL3xmxqjfC2162uIZD&&limit=25&offset=25&__after_id=10200438"}, "data": [{"id": "10200438", "name": "Erik Skurka"}]}, "created_time": "2010-11-26T21:26:59+0000", "id": "944097893193"}, {"from": {"name": "Rob Witoff", "id": "10222444"}, "tags": {"data": [{"name": "Matt Lenda", "id": "10221434"}, {"name": "Byron Young", "id": "10231241"}]}, "application": {"id": "6628568379", "namespace": "fbtouch", "name": "Facebook for iPhone", "canvas_name": "fbtouch"}, "place": {"location": {"city": "Boulder", "zip": "80302-6709", "country": "United States", "longitude": -105.26251258566, "state": "CO", "street": "2426 Arapahoe Ave", "latitude": 40.01380326957}, "id": "111545955551739", "name": "Big City Burrito Boulder"}, "likes": {"paging": {"next": "https://graph.facebook.com/944086401223/likes?access_token=AAACEdEose0cBANEWIpdcvQOxjoZArZC4y6n5lzNr1qmR2k86fLTuiMijkh4WJ6snXilTuYj706GHNvL3xmxqjfC2162uIZD&&limit=25&offset=25&__after_id=10207199"}, "data": [{"id": "10207199", "name": "Nick Sowden"}]}, "created_time": "2010-11-26T21:02:32+0000", "id": "944086401223"}, {"created_time": "2010-10-31T00:19:03+0000", "place": {"location": {"city": "San Francisco", "zip": "94108-5803", "country": "United States", "longitude": -122.40438479526, "state": "CA", "street": "43 Ofarrell St", "latitude": 37.786760229231}, "id": "107291239309879", "name": "Cafe Madeleine"}, "from": {"name": "Rob Witoff", "id": "10222444"}, "id": "928303370543", "application": {"id": "6628568379", "namespace": "fbtouch", "name": "Facebook for iPhone", "canvas_name": "fbtouch"}}, {"created_time": "2010-10-03T17:01:01+0000", "place": {"location": {"city": "Las Vegas", "zip": "89119", "country": "United States", "longitude": -115.13828995512, "state": "NV", "street": "5757 Wayne Newton Blvd", "latitude": 36.081874998602}, "id": "216230766864", "name": "McCarran International Airport"}, "from": {"name": "Rob Witoff", "id": "10222444"}, "id": "913262826913", "application": {"id": "6628568379", "namespace": "fbtouch", "name": "Facebook for iPhone", "canvas_name": "fbtouch"}}, {"created_time": "2010-08-21T06:36:28+0000", "place": {"location": {"city": "Pasadena", "zip": "91107-3656", "country": "United States", "longitude": -118.10449348533, "state": "CA", "street": "2226 E Colorado Blvd", "latitude": 34.145915974113}, "id": "113570668672271", "name": "Sahara Restaurant"}, "from": {"name": "Rob Witoff", "id": "10222444"}, "id": "892767684343", "application": {"id": "6628568379", "namespace": "fbtouch", "name": "Facebook for iPhone", "canvas_name": "fbtouch"}}]